header:
  stamp:
    sec: 1761839356
    nanosec: 378488896
  frame_id: /map
child_frame_id: ''
pose:
  pose:
    position:
      x: 0.41073855635025636
      y: 1.8403120699514202
      z: 0.0
    orientation:
      x: 0.0
      y: -0.0
      z: -0.9850658401758412
      w: -0.17217807792708145
  covariance:
  - 0.009762602490176488
  - 0.0017895517969317278
  - 0.001079234797853763
  - 0.0017895517969317278
  - 0.007247340753988646
  - 0.0002625732480644952
  - 0.001079234797853763
  - 0.00026257324806449516
  - 0.009297793552091314
  - 0.0
  - 0.0
  - 0.0
  - 0.0
  - 0.0
  - 0.0
  - 0.0
  - 0.0
  - 0.0
  - 0.0
  - 0.0
  - 0.0
  - 0.0
  - 0.0
  - 0.0
  - 0.0
  - 0.0
  - 0.0
  - 0.0
  - 0.0
  - 0.0
  - 0.0
  - 0.0
  - 0.0
  - 0.0
  - 0.0
  - 0.0
twist:
  twist:
    linear:
      x: 0.0
      y: 0.0
      z: 0.0
    angular:
      x: 0.0
      y: 0.0
      z: 0.0
  covariance:
  - 0.0
  - 0.0
  - 0.0
  - 0.0
  - 0.0
  - 0.0
  - 0.0
  - 0.0
  - 0.0
  - 0.0
  - 0.0
  - 0.0
  - 0.0
  - 0.0
  - 0.0
  - 0.0
  - 0.0
  - 0.0
  - 0.0
  - 0.0
  - 0.0
  - 0.0
  - 0.0
  - 0.0
  - 0.0
  - 0.0
  - 0.0
  - 0.0
  - 0.0
  - 0.0
  - 0.0
  - 0.0
  - 0.0
  - 0.0
  - 0.0
  - 0.0
---
header:
  stamp:
    sec: 1761839356
    nanosec: 720155885
  frame_id: /map
child_frame_id: ''
pose:
  pose:
    position:
      x: 0.4129718460797323
      y: 1.8409033300925064
      z: 0.0
    orientation:
      x: 0.0
      y: -0.0
      z: -0.9850575142205569
      w: -0.17222570562380443
  covariance:
  - 0.010080367720464008
  - 0.001751223459549254
  - 0.0014650923085936943
  - 0.001751223459549254
  - 0.007209583456903219
  - 0.0006004189409605484
  - 0.0014650923085936943
  - 0.0006004189409605485
  - 0.009111418796900727
  - 0.0
  - 0.0
  - 0.0
  - 0.0
  - 0.0
  - 0.0
  - 0.0
  - 0.0
  - 0.0
  - 0.0
  - 0.0
  - 0.0
  - 0.0
  - 0.0
  - 0.0
  - 0.0
  - 0.0
  - 0.0
  - 0.0
  - 0.0
  - 0.0
  - 0.0
  - 0.0
  - 0.0
  - 0.0
  - 0.0
  - 0.0
twist:
  twist:
    linear:
      x: 0.0
      y: 0.0
      z: 0.0
    angular:
      x: 0.0
      y: 0.0
      z: 0.0
  covariance:
  - 0.0
  - 0.0
  - 0.0
  - 0.0
  - 0.0
  - 0.0
  - 0.0
  - 0.0
  - 0.0
  - 0.0
  - 0.0
  - 0.0
  - 0.0
  - 0.0
  - 0.0
  - 0.0
  - 0.0
  - 0.0
  - 0.0
  - 0.0
  - 0.0
  - 0.0
  - 0.0
  - 0.0
  - 0.0
  - 0.0
  - 0.0
  - 0.0
  - 0.0
  - 0.0
  - 0.0
  - 0.0
  - 0.0
  - 0.0
  - 0.0
  - 0.0
---
header:
  stamp:
    sec: 1761839356
    nanosec: 907127441
  frame_id: /map
child_frame_id: ''
pose:
  pose:
    position:
      x: 0.4153114835302274
      y: 1.8412811003193181
      z: 0.0
    orientation:
      x: 0.0
      y: -0.0
      z: -0.9851150179477142
      w: -0.17189648458847176
  covariance:
  - 0.009926548110631218
  - 0.0018213758008007318
  - 0.0013253283927463276
  - 0.0018213758008007318
  - 0.0075353770535085554
  - 0.0003479113447141349
  - 0.0013253283927463278
  - 0.0003479113447141348
  - 0.009204891701641401
  - 0.0
  - 0.0
  - 0.0
  - 0.0
  - 0.0
  - 0.0
  - 0.0
  - 0.0
  - 0.0
  - 0.0
  - 0.0
  - 0.0
  - 0.0
  - 0.0
  - 0.0
  - 0.0
  - 0.0
  - 0.0
  - 0.0
  - 0.0
  - 0.0
  - 0.0
  - 0.0
  - 0.0
  - 0.0
  - 0.0
  - 0.0
twist:
  twist:
    linear:
      x: 0.0
      y: 0.0
      z: 0.0
    angular:
      x: 0.0
      y: 0.0
      z: 0.0
  covariance:
  - 0.0
  - 0.0
  - 0.0
  - 0.0
  - 0.0
  - 0.0
  - 0.0
  - 0.0
  - 0.0
  - 0.0
  - 0.0
  - 0.0
  - 0.0
  - 0.0
  - 0.0
  - 0.0
  - 0.0
  - 0.0
  - 0.0
  - 0.0
  - 0.0
  - 0.0
  - 0.0
  - 0.0
  - 0.0
  - 0.0
  - 0.0
  - 0.0
  - 0.0
  - 0.0
  - 0.0
  - 0.0
  - 0.0
  - 0.0
  - 0.0
  - 0.0
---
header:
  stamp:
    sec: 1761839357
    nanosec: 163418937
  frame_id: /map
child_frame_id: ''
pose:
  pose:
    position:
      x: 0.4173196268932493
      y: 1.8415681552463665
      z: 0.0
    orientation:
      x: 0.0
      y: -0.0
      z: -0.9848395924467342
      w: -0.17346751035669583
  covariance:
  - 0.009468884102532299
  - 0.0017132750213325267
  - 0.0012222761052867147
  - 0.0017132750213325267
  - 0.0075984844861503986
  - 0.00032452915048065403
  - 0.0012222761052867147
  - 0.000324529150480654
  - 0.008928805029500872
  - 0.0
  - 0.0
  - 0.0
  - 0.0
  - 0.0
  - 0.0
  - 0.0
  - 0.0
  - 0.0
  - 0.0
  - 0.0
  - 0.0
  - 0.0
  - 0.0
  - 0.0
  - 0.0
  - 0.0
  - 0.0
  - 0.0
  - 0.0
  - 0.0
  - 0.0
  - 0.0
  - 0.0
  - 0.0
  - 0.0
  - 0.0
twist:
  twist:
    linear:
      x: 0.0
      y: 0.0
      z: 0.0
    angular:
      x: 0.0
      y: 0.0
      z: 0.0
  covariance:
  - 0.0
  - 0.0
  - 0.0
  - 0.0
  - 0.0
  - 0.0
  - 0.0
  - 0.0
  - 0.0
  - 0.0
  - 0.0
  - 0.0
  - 0.0
  - 0.0
  - 0.0
  - 0.0
  - 0.0
  - 0.0
  - 0.0
  - 0.0
  - 0.0
  - 0.0
  - 0.0
  - 0.0
  - 0.0
  - 0.0
  - 0.0
  - 0.0
  - 0.0
  - 0.0
  - 0.0
  - 0.0
  - 0.0
  - 0.0
  - 0.0
  - 0.0
---
header:
  stamp:
    sec: 1761839357
    nanosec: 441022014
  frame_id: /map
child_frame_id: ''
pose:
  pose:
    position:
      x: 0.41589833002696486
      y: 1.8400059660445338
      z: 0.0
    orientation:
      x: 0.0
      y: -0.0
      z: -0.9850467447691593
      w: -0.1722872909406922
  covariance:
  - 0.009745448002139053
  - 0.0017852851919756456
  - 0.0012366563387861279
  - 0.0017852851919756456
  - 0.007716351437541862
  - 4.136847854378881e-05
  - 0.0012366563387861279
  - 4.1368478543788784e-05
  - 0.009413553524916319
  - 0.0
  - 0.0
  - 0.0
  - 0.0
  - 0.0
  - 0.0
  - 0.0
  - 0.0
  - 0.0
  - 0.0
  - 0.0
  - 0.0
  - 0.0
  - 0.0
  - 0.0
  - 0.0
  - 0.0
  - 0.0
  - 0.0
  - 0.0
  - 0.0
  - 0.0
  - 0.0
  - 0.0
  - 0.0
  - 0.0
  - 0.0
twist:
  twist:
    linear:
      x: 0.0
      y: 0.0
      z: 0.0
    angular:
      x: 0.0
      y: 0.0
      z: 0.0
  covariance:
  - 0.0
  - 0.0
  - 0.0
  - 0.0
  - 0.0
  - 0.0
  - 0.0
  - 0.0
  - 0.0
  - 0.0
  - 0.0
  - 0.0
  - 0.0
  - 0.0
  - 0.0
  - 0.0
  - 0.0
  - 0.0
  - 0.0
  - 0.0
  - 0.0
  - 0.0
  - 0.0
  - 0.0
  - 0.0
  - 0.0
  - 0.0
  - 0.0
  - 0.0
  - 0.0
  - 0.0
  - 0.0
  - 0.0
  - 0.0
  - 0.0
  - 0.0
---
header:
  stamp:
    sec: 1761839357
    nanosec: 684923697
  frame_id: /map
child_frame_id: ''
pose:
  pose:
    position:
      x: 0.4147132803209557
      y: 1.838374897827225
      z: 0.0
    orientation:
      x: 0.0
      y: -0.0
      z: -0.984988366754692
      w: -0.1726207327001142
  covariance:
  - 0.00948070092972147
  - 0.001818696209808795
  - 0.0012710189782674756
  - 0.001818696209808795
  - 0.007538349947709667
  - 0.00024256241108485776
  - 0.0012710189782674756
  - 0.00024256241108485776
  - 0.009254193214203682
  - 0.0
  - 0.0
  - 0.0
  - 0.0
  - 0.0
  - 0.0
  - 0.0
  - 0.0
  - 0.0
  - 0.0
  - 0.0
  - 0.0
  - 0.0
  - 0.0
  - 0.0
  - 0.0
  - 0.0
  - 0.0
  - 0.0
  - 0.0
  - 0.0
  - 0.0
  - 0.0
  - 0.0
  - 0.0
  - 0.0
  - 0.0
twist:
  twist:
    linear:
      x: 0.0
      y: 0.0
      z: 0.0
    angular:
      x: 0.0
      y: 0.0
      z: 0.0
  covariance:
  - 0.0
  - 0.0
  - 0.0
  - 0.0
  - 0.0
  - 0.0
  - 0.0
  - 0.0
  - 0.0
  - 0.0
  - 0.0
  - 0.0
  - 0.0
  - 0.0
  - 0.0
  - 0.0
  - 0.0
  - 0.0
  - 0.0
  - 0.0
  - 0.0
  - 0.0
  - 0.0
  - 0.0
  - 0.0
  - 0.0
  - 0.0
  - 0.0
  - 0.0
  - 0.0
  - 0.0
  - 0.0
  - 0.0
  - 0.0
  - 0.0
  - 0.0
---
header:
  stamp:
    sec: 1761839357
    nanosec: 997021332
  frame_id: /map
child_frame_id: ''
pose:
  pose:
    position:
      x: 0.4165594237434007
      y: 1.8361308187111929
      z: 0.0
    orientation:
      x: 0.0
      y: -0.0
      z: -0.9848327527255971
      w: -0.1735063375180368
  covariance:
  - 0.009860377055743533
  - 0.0019060249442079454
  - 0.001509244553262211
  - 0.0019060249442079459
  - 0.007319693800560863
  - 0.00033197913479759083
  - 0.0015092445532622113
  - 0.00033197913479759094
  - 0.009124387419025914
  - 0.0
  - 0.0
  - 0.0
  - 0.0
  - 0.0
  - 0.0
  - 0.0
  - 0.0
  - 0.0
  - 0.0
  - 0.0
  - 0.0
  - 0.0
  - 0.0
  - 0.0
  - 0.0
  - 0.0
  - 0.0
  - 0.0
  - 0.0
  - 0.0
  - 0.0
  - 0.0
  - 0.0
  - 0.0
  - 0.0
  - 0.0
twist:
  twist:
    linear:
      x: 0.0
      y: 0.0
      z: 0.0
    angular:
      x: 0.0
      y: 0.0
      z: 0.0
  covariance:
  - 0.0
  - 0.0
  - 0.0
  - 0.0
  - 0.0
  - 0.0
  - 0.0
  - 0.0
  - 0.0
  - 0.0
  - 0.0
  - 0.0
  - 0.0
  - 0.0
  - 0.0
  - 0.0
  - 0.0
  - 0.0
  - 0.0
  - 0.0
  - 0.0
  - 0.0
  - 0.0
  - 0.0
  - 0.0
  - 0.0
  - 0.0
  - 0.0
  - 0.0
  - 0.0
  - 0.0
  - 0.0
  - 0.0
  - 0.0
  - 0.0
  - 0.0
---
header:
  stamp:
    sec: 1761839358
    nanosec: 239861983
  frame_id: /map
child_frame_id: ''
pose:
  pose:
    position:
      x: 0.41595280442095384
      y: 1.8352718756240032
      z: 0.0
    orientation:
      x: 0.0
      y: -0.0
      z: -0.9849059170011767
      w: -0.17309053889820572
  covariance:
  - 0.009841459898334012
  - 0.0016241747117059933
  - 0.0011614999678481513
  - 0.0016241747117059933
  - 0.007153916125320117
  - 0.0004225219136333316
  - 0.0011614999678481513
  - 0.00042252191363333167
  - 0.008959496088759778
  - 0.0
  - 0.0
  - 0.0
  - 0.0
  - 0.0
  - 0.0
  - 0.0
  - 0.0
  - 0.0
  - 0.0
  - 0.0
  - 0.0
  - 0.0
  - 0.0
  - 0.0
  - 0.0
  - 0.0
  - 0.0
  - 0.0
  - 0.0
  - 0.0
  - 0.0
  - 0.0
  - 0.0
  - 0.0
  - 0.0
  - 0.0
twist:
  twist:
    linear:
      x: 0.0
      y: 0.0
      z: 0.0
    angular:
      x: 0.0
      y: 0.0
      z: 0.0
  covariance:
  - 0.0
  - 0.0
  - 0.0
  - 0.0
  - 0.0
  - 0.0
  - 0.0
  - 0.0
  - 0.0
  - 0.0
  - 0.0
  - 0.0
  - 0.0
  - 0.0
  - 0.0
  - 0.0
  - 0.0
  - 0.0
  - 0.0
  - 0.0
  - 0.0
  - 0.0
  - 0.0
  - 0.0
  - 0.0
  - 0.0
  - 0.0
  - 0.0
  - 0.0
  - 0.0
  - 0.0
  - 0.0
  - 0.0
  - 0.0
  - 0.0
  - 0.0
---
header:
  stamp:
    sec: 1761839358
    nanosec: 422983062
  frame_id: /map
child_frame_id: ''
pose:
  pose:
    position:
      x: 0.41635948061834016
      y: 1.835695349109757
      z: 0.0
    orientation:
      x: 0.0
      y: -0.0
      z: -0.9845983324593763
      w: -0.174831701124869
  covariance:
  - 0.009909103293667253
  - 0.0016460316461577092
  - 0.0013487605807910165
  - 0.0016460316461577092
  - 0.0071265857666904
  - 0.00022737661133829588
  - 0.0013487605807910167
  - 0.00022737661133829598
  - 0.009194352820023306
  - 0.0
  - 0.0
  - 0.0
  - 0.0
  - 0.0
  - 0.0
  - 0.0
  - 0.0
  - 0.0
  - 0.0
  - 0.0
  - 0.0
  - 0.0
  - 0.0
  - 0.0
  - 0.0
  - 0.0
  - 0.0
  - 0.0
  - 0.0
  - 0.0
  - 0.0
  - 0.0
  - 0.0
  - 0.0
  - 0.0
  - 0.0
twist:
  twist:
    linear:
      x: 0.0
      y: 0.0
      z: 0.0
    angular:
      x: 0.0
      y: 0.0
      z: 0.0
  covariance:
  - 0.0
  - 0.0
  - 0.0
  - 0.0
  - 0.0
  - 0.0
  - 0.0
  - 0.0
  - 0.0
  - 0.0
  - 0.0
  - 0.0
  - 0.0
  - 0.0
  - 0.0
  - 0.0
  - 0.0
  - 0.0
  - 0.0
  - 0.0
  - 0.0
  - 0.0
  - 0.0
  - 0.0
  - 0.0
  - 0.0
  - 0.0
  - 0.0
  - 0.0
  - 0.0
  - 0.0
  - 0.0
  - 0.0
  - 0.0
  - 0.0
  - 0.0
---
header:
  stamp:
    sec: 1761839358
    nanosec: 601579210
  frame_id: /map
child_frame_id: ''
pose:
  pose:
    position:
      x: 0.4186771445719105
      y: 1.8348970418106072
      z: 0.0
    orientation:
      x: 0.0
      y: -0.0
      z: -0.9846829553130129
      w: -0.17435445940964978
  covariance:
  - 0.009853111094524305
  - 0.001718878635390075
  - 0.0012963902160886595
  - 0.001718878635390075
  - 0.0070022107046477005
  - 0.0003174167094031264
  - 0.0012963902160886597
  - 0.00031741670940312646
  - 0.008900080253701443
  - 0.0
  - 0.0
  - 0.0
  - 0.0
  - 0.0
  - 0.0
  - 0.0
  - 0.0
  - 0.0
  - 0.0
  - 0.0
  - 0.0
  - 0.0
  - 0.0
  - 0.0
  - 0.0
  - 0.0
  - 0.0
  - 0.0
  - 0.0
  - 0.0
  - 0.0
  - 0.0
  - 0.0
  - 0.0
  - 0.0
  - 0.0
twist:
  twist:
    linear:
      x: 0.0
      y: 0.0
      z: 0.0
    angular:
      x: 0.0
      y: 0.0
      z: 0.0
  covariance:
  - 0.0
  - 0.0
  - 0.0
  - 0.0
  - 0.0
  - 0.0
  - 0.0
  - 0.0
  - 0.0
  - 0.0
  - 0.0
  - 0.0
  - 0.0
  - 0.0
  - 0.0
  - 0.0
  - 0.0
  - 0.0
  - 0.0
  - 0.0
  - 0.0
  - 0.0
  - 0.0
  - 0.0
  - 0.0
  - 0.0
  - 0.0
  - 0.0
  - 0.0
  - 0.0
  - 0.0
  - 0.0
  - 0.0
  - 0.0
  - 0.0
  - 0.0
---
header:
  stamp:
    sec: 1761839358
    nanosec: 690844052
  frame_id: /map
child_frame_id: ''
pose:
  pose:
    position:
      x: 0.4199333281255908
      y: 1.8347289926577675
      z: 0.0
    orientation:
      x: 0.0
      y: -0.0
      z: -0.9848366317481118
      w: -0.1734843185046824
  covariance:
  - 0.009852085580289001
  - 0.0017398167281964822
  - 0.001232952161746126
  - 0.0017398167281964826
  - 0.007169950717809489
  - 0.0003803928433830701
  - 0.001232952161746126
  - 0.0003803928433830699
  - 0.009331796836470738
  - 0.0
  - 0.0
  - 0.0
  - 0.0
  - 0.0
  - 0.0
  - 0.0
  - 0.0
  - 0.0
  - 0.0
  - 0.0
  - 0.0
  - 0.0
  - 0.0
  - 0.0
  - 0.0
  - 0.0
  - 0.0
  - 0.0
  - 0.0
  - 0.0
  - 0.0
  - 0.0
  - 0.0
  - 0.0
  - 0.0
  - 0.0
twist:
  twist:
    linear:
      x: 0.0
      y: 0.0
      z: 0.0
    angular:
      x: 0.0
      y: 0.0
      z: 0.0
  covariance:
  - 0.0
  - 0.0
  - 0.0
  - 0.0
  - 0.0
  - 0.0
  - 0.0
  - 0.0
  - 0.0
  - 0.0
  - 0.0
  - 0.0
  - 0.0
  - 0.0
  - 0.0
  - 0.0
  - 0.0
  - 0.0
  - 0.0
  - 0.0
  - 0.0
  - 0.0
  - 0.0
  - 0.0
  - 0.0
  - 0.0
  - 0.0
  - 0.0
  - 0.0
  - 0.0
  - 0.0
  - 0.0
  - 0.0
  - 0.0
  - 0.0
  - 0.0
---
header:
  stamp:
    sec: 1761839358
    nanosec: 872516278
  frame_id: /map
child_frame_id: ''
pose:
  pose:
    position:
      x: 0.4182330697780983
      y: 1.8324116468168687
      z: 0.0
    orientation:
      x: 0.0
      y: -0.0
      z: -0.9851370279046334
      w: -0.1717703008416341
  covariance:
  - 0.009890380125445592
  - 0.0017719039359600979
  - 0.0013216940480387173
  - 0.0017719039359600979
  - 0.007450883739311102
  - 0.0004516467286157109
  - 0.0013216940480387175
  - 0.00045164672861571094
  - 0.008869787586991982
  - 0.0
  - 0.0
  - 0.0
  - 0.0
  - 0.0
  - 0.0
  - 0.0
  - 0.0
  - 0.0
  - 0.0
  - 0.0
  - 0.0
  - 0.0
  - 0.0
  - 0.0
  - 0.0
  - 0.0
  - 0.0
  - 0.0
  - 0.0
  - 0.0
  - 0.0
  - 0.0
  - 0.0
  - 0.0
  - 0.0
  - 0.0
twist:
  twist:
    linear:
      x: 0.0
      y: 0.0
      z: 0.0
    angular:
      x: 0.0
      y: 0.0
      z: 0.0
  covariance:
  - 0.0
  - 0.0
  - 0.0
  - 0.0
  - 0.0
  - 0.0
  - 0.0
  - 0.0
  - 0.0
  - 0.0
  - 0.0
  - 0.0
  - 0.0
  - 0.0
  - 0.0
  - 0.0
  - 0.0
  - 0.0
  - 0.0
  - 0.0
  - 0.0
  - 0.0
  - 0.0
  - 0.0
  - 0.0
  - 0.0
  - 0.0
  - 0.0
  - 0.0
  - 0.0
  - 0.0
  - 0.0
  - 0.0
  - 0.0
  - 0.0
  - 0.0
---
header:
  stamp:
    sec: 1761839359
    nanosec: 30787262
  frame_id: /map
child_frame_id: ''
pose:
  pose:
    position:
      x: 0.42168615966925066
      y: 1.8321939506449438
      z: 0.0
    orientation:
      x: 0.0
      y: -0.0
      z: -0.9849586317608351
      w: -0.17279031720505555
  covariance:
  - 0.009786830976500988
  - 0.001842207414516186
  - 0.0010992763904381598
  - 0.001842207414516186
  - 0.0074083817557009605
  - 0.0004891038566324837
  - 0.00109927639043816
  - 0.0004891038566324837
  - 0.009052344842565571
  - 0.0
  - 0.0
  - 0.0
  - 0.0
  - 0.0
  - 0.0
  - 0.0
  - 0.0
  - 0.0
  - 0.0
  - 0.0
  - 0.0
  - 0.0
  - 0.0
  - 0.0
  - 0.0
  - 0.0
  - 0.0
  - 0.0
  - 0.0
  - 0.0
  - 0.0
  - 0.0
  - 0.0
  - 0.0
  - 0.0
  - 0.0
twist:
  twist:
    linear:
      x: 0.0
      y: 0.0
      z: 0.0
    angular:
      x: 0.0
      y: 0.0
      z: 0.0
  covariance:
  - 0.0
  - 0.0
  - 0.0
  - 0.0
  - 0.0
  - 0.0
  - 0.0
  - 0.0
  - 0.0
  - 0.0
  - 0.0
  - 0.0
  - 0.0
  - 0.0
  - 0.0
  - 0.0
  - 0.0
  - 0.0
  - 0.0
  - 0.0
  - 0.0
  - 0.0
  - 0.0
  - 0.0
  - 0.0
  - 0.0
  - 0.0
  - 0.0
  - 0.0
  - 0.0
  - 0.0
  - 0.0
  - 0.0
  - 0.0
  - 0.0
  - 0.0
---
header:
  stamp:
    sec: 1761839359
    nanosec: 254647671
  frame_id: /map
child_frame_id: ''
pose:
  pose:
    position:
      x: 0.4204876791236932
      y: 1.831870719172717
      z: 0.0
    orientation:
      x: 0.0
      y: -0.0
      z: -0.9849684269532875
      w: -0.1727344722548644
  covariance:
  - 0.009478143385877397
  - 0.0016602032928095475
  - 0.0012878969614426058
  - 0.0016602032928095475
  - 0.007548595830821757
  - 0.00038581044073721793
  - 0.0012878969614426058
  - 0.00038581044073721793
  - 0.009317734973198634
  - 0.0
  - 0.0
  - 0.0
  - 0.0
  - 0.0
  - 0.0
  - 0.0
  - 0.0
  - 0.0
  - 0.0
  - 0.0
  - 0.0
  - 0.0
  - 0.0
  - 0.0
  - 0.0
  - 0.0
  - 0.0
  - 0.0
  - 0.0
  - 0.0
  - 0.0
  - 0.0
  - 0.0
  - 0.0
  - 0.0
  - 0.0
twist:
  twist:
    linear:
      x: 0.0
      y: 0.0
      z: 0.0
    angular:
      x: 0.0
      y: 0.0
      z: 0.0
  covariance:
  - 0.0
  - 0.0
  - 0.0
  - 0.0
  - 0.0
  - 0.0
  - 0.0
  - 0.0
  - 0.0
  - 0.0
  - 0.0
  - 0.0
  - 0.0
  - 0.0
  - 0.0
  - 0.0
  - 0.0
  - 0.0
  - 0.0
  - 0.0
  - 0.0
  - 0.0
  - 0.0
  - 0.0
  - 0.0
  - 0.0
  - 0.0
  - 0.0
  - 0.0
  - 0.0
  - 0.0
  - 0.0
  - 0.0
  - 0.0
  - 0.0
  - 0.0
---
header:
  stamp:
    sec: 1761839359
    nanosec: 492240124
  frame_id: /map
child_frame_id: ''
pose:
  pose:
    position:
      x: 0.41692714684743315
      y: 1.8339532977138222
      z: 0.0
    orientation:
      x: 0.0
      y: -0.0
      z: -0.9852615168172132
      w: -0.17105479671451604
  covariance:
  - 0.00967030071424924
  - 0.0016473402652846393
  - 0.0011218104008441502
  - 0.001647340265284639
  - 0.0077989434334119956
  - 0.0003355919493042765
  - 0.0011218104008441502
  - 0.0003355919493042765
  - 0.009430327956095651
  - 0.0
  - 0.0
  - 0.0
  - 0.0
  - 0.0
  - 0.0
  - 0.0
  - 0.0
  - 0.0
  - 0.0
  - 0.0
  - 0.0
  - 0.0
  - 0.0
  - 0.0
  - 0.0
  - 0.0
  - 0.0
  - 0.0
  - 0.0
  - 0.0
  - 0.0
  - 0.0
  - 0.0
  - 0.0
  - 0.0
  - 0.0
twist:
  twist:
    linear:
      x: 0.0
      y: 0.0
      z: 0.0
    angular:
      x: 0.0
      y: 0.0
      z: 0.0
  covariance:
  - 0.0
  - 0.0
  - 0.0
  - 0.0
  - 0.0
  - 0.0
  - 0.0
  - 0.0
  - 0.0
  - 0.0
  - 0.0
  - 0.0
  - 0.0
  - 0.0
  - 0.0
  - 0.0
  - 0.0
  - 0.0
  - 0.0
  - 0.0
  - 0.0
  - 0.0
  - 0.0
  - 0.0
  - 0.0
  - 0.0
  - 0.0
  - 0.0
  - 0.0
  - 0.0
  - 0.0
  - 0.0
  - 0.0
  - 0.0
  - 0.0
  - 0.0
---
header:
  stamp:
    sec: 1761839359
    nanosec: 791561909
  frame_id: /map
child_frame_id: ''
pose:
  pose:
    position:
      x: 0.4169646441121027
      y: 1.8361901626511137
      z: 0.0
    orientation:
      x: 0.0
      y: -0.0
      z: -0.9850091610986096
      w: -0.17250203637004788
  covariance:
  - 0.00969489825562209
  - 0.001588059996348247
  - 0.0012744720695669056
  - 0.001588059996348247
  - 0.007783147345136219
  - 0.0003930491112512263
  - 0.0012744720695669059
  - 0.0003930491112512263
  - 0.009178199902990701
  - 0.0
  - 0.0
  - 0.0
  - 0.0
  - 0.0
  - 0.0
  - 0.0
  - 0.0
  - 0.0
  - 0.0
  - 0.0
  - 0.0
  - 0.0
  - 0.0
  - 0.0
  - 0.0
  - 0.0
  - 0.0
  - 0.0
  - 0.0
  - 0.0
  - 0.0
  - 0.0
  - 0.0
  - 0.0
  - 0.0
  - 0.0
twist:
  twist:
    linear:
      x: 0.0
      y: 0.0
      z: 0.0
    angular:
      x: 0.0
      y: 0.0
      z: 0.0
  covariance:
  - 0.0
  - 0.0
  - 0.0
  - 0.0
  - 0.0
  - 0.0
  - 0.0
  - 0.0
  - 0.0
  - 0.0
  - 0.0
  - 0.0
  - 0.0
  - 0.0
  - 0.0
  - 0.0
  - 0.0
  - 0.0
  - 0.0
  - 0.0
  - 0.0
  - 0.0
  - 0.0
  - 0.0
  - 0.0
  - 0.0
  - 0.0
  - 0.0
  - 0.0
  - 0.0
  - 0.0
  - 0.0
  - 0.0
  - 0.0
  - 0.0
  - 0.0
---
header:
  stamp:
    sec: 1761839360
    nanosec: 145391258
  frame_id: /map
child_frame_id: ''
pose:
  pose:
    position:
      x: 0.418249021576227
      y: 1.8404701424034882
      z: 0.0
    orientation:
      x: 0.0
      y: -0.0
      z: -0.9852644891673417
      w: -0.17103767534030984
  covariance:
  - 0.009567146363063585
  - 0.001731799815762749
  - 0.0014168024979661089
  - 0.001731799815762749
  - 0.007521306962200529
  - 0.0004780415431485959
  - 0.0014168024979661087
  - 0.00047804154314859594
  - 0.008959591991803708
  - 0.0
  - 0.0
  - 0.0
  - 0.0
  - 0.0
  - 0.0
  - 0.0
  - 0.0
  - 0.0
  - 0.0
  - 0.0
  - 0.0
  - 0.0
  - 0.0
  - 0.0
  - 0.0
  - 0.0
  - 0.0
  - 0.0
  - 0.0
  - 0.0
  - 0.0
  - 0.0
  - 0.0
  - 0.0
  - 0.0
  - 0.0
twist:
  twist:
    linear:
      x: 0.0
      y: 0.0
      z: 0.0
    angular:
      x: 0.0
      y: 0.0
      z: 0.0
  covariance:
  - 0.0
  - 0.0
  - 0.0
  - 0.0
  - 0.0
  - 0.0
  - 0.0
  - 0.0
  - 0.0
  - 0.0
  - 0.0
  - 0.0
  - 0.0
  - 0.0
  - 0.0
  - 0.0
  - 0.0
  - 0.0
  - 0.0
  - 0.0
  - 0.0
  - 0.0
  - 0.0
  - 0.0
  - 0.0
  - 0.0
  - 0.0
  - 0.0
  - 0.0
  - 0.0
  - 0.0
  - 0.0
  - 0.0
  - 0.0
  - 0.0
  - 0.0
---
header:
  stamp:
    sec: 1761839360
    nanosec: 329082181
  frame_id: /map
child_frame_id: ''
pose:
  pose:
    position:
      x: 0.4165752614976672
      y: 1.8417762209181903
      z: 0.0
    orientation:
      x: 0.0
      y: -0.0
      z: -0.9847920454328616
      w: -0.17373723622804868
  covariance:
  - 0.010018169665706006
  - 0.0017073824543626158
  - 0.0014956193745062582
  - 0.0017073824543626158
  - 0.007648145106411303
  - 0.0003851200998811317
  - 0.0014956193745062582
  - 0.0003851200998811317
  - 0.009245041431351613
  - 0.0
  - 0.0
  - 0.0
  - 0.0
  - 0.0
  - 0.0
  - 0.0
  - 0.0
  - 0.0
  - 0.0
  - 0.0
  - 0.0
  - 0.0
  - 0.0
  - 0.0
  - 0.0
  - 0.0
  - 0.0
  - 0.0
  - 0.0
  - 0.0
  - 0.0
  - 0.0
  - 0.0
  - 0.0
  - 0.0
  - 0.0
twist:
  twist:
    linear:
      x: 0.0
      y: 0.0
      z: 0.0
    angular:
      x: 0.0
      y: 0.0
      z: 0.0
  covariance:
  - 0.0
  - 0.0
  - 0.0
  - 0.0
  - 0.0
  - 0.0
  - 0.0
  - 0.0
  - 0.0
  - 0.0
  - 0.0
  - 0.0
  - 0.0
  - 0.0
  - 0.0
  - 0.0
  - 0.0
  - 0.0
  - 0.0
  - 0.0
  - 0.0
  - 0.0
  - 0.0
  - 0.0
  - 0.0
  - 0.0
  - 0.0
  - 0.0
  - 0.0
  - 0.0
  - 0.0
  - 0.0
  - 0.0
  - 0.0
  - 0.0
  - 0.0
---
header:
  stamp:
    sec: 1761839360
    nanosec: 526331706
  frame_id: /map
child_frame_id: ''
pose:
  pose:
    position:
      x: 0.4170335835196945
      y: 1.8428364980389575
      z: 0.0
    orientation:
      x: 0.0
      y: -0.0
      z: -0.9850447998805858
      w: -0.17229841040536797
  covariance:
  - 0.010107086114342044
  - 0.0018822889858173537
  - 0.0012518729058704774
  - 0.0018822889858173533
  - 0.0076704580605429775
  - 0.00028154160197852747
  - 0.0012518729058704772
  - 0.0002815416019785274
  - 0.0090574058110602
  - 0.0
  - 0.0
  - 0.0
  - 0.0
  - 0.0
  - 0.0
  - 0.0
  - 0.0
  - 0.0
  - 0.0
  - 0.0
  - 0.0
  - 0.0
  - 0.0
  - 0.0
  - 0.0
  - 0.0
  - 0.0
  - 0.0
  - 0.0
  - 0.0
  - 0.0
  - 0.0
  - 0.0
  - 0.0
  - 0.0
  - 0.0
twist:
  twist:
    linear:
      x: 0.0
      y: 0.0
      z: 0.0
    angular:
      x: 0.0
      y: 0.0
      z: 0.0
  covariance:
  - 0.0
  - 0.0
  - 0.0
  - 0.0
  - 0.0
  - 0.0
  - 0.0
  - 0.0
  - 0.0
  - 0.0
  - 0.0
  - 0.0
  - 0.0
  - 0.0
  - 0.0
  - 0.0
  - 0.0
  - 0.0
  - 0.0
  - 0.0
  - 0.0
  - 0.0
  - 0.0
  - 0.0
  - 0.0
  - 0.0
  - 0.0
  - 0.0
  - 0.0
  - 0.0
  - 0.0
  - 0.0
  - 0.0
  - 0.0
  - 0.0
  - 0.0
---
header:
  stamp:
    sec: 1761839360
    nanosec: 698032659
  frame_id: /map
child_frame_id: ''
pose:
  pose:
    position:
      x: 0.4171222793279229
      y: 1.840273160382634
      z: 0.0
    orientation:
      x: 0.0
      y: -0.0
      z: -0.9847383357488051
      w: -0.17404140342652288
  covariance:
  - 0.010195306780049304
  - 0.0020025223112157303
  - 0.0011525659832845167
  - 0.0020025223112157303
  - 0.007668793894564684
  - 0.0002784011444811294
  - 0.0011525659832845167
  - 0.00027840114448112943
  - 0.009084727546768397
  - 0.0
  - 0.0
  - 0.0
  - 0.0
  - 0.0
  - 0.0
  - 0.0
  - 0.0
  - 0.0
  - 0.0
  - 0.0
  - 0.0
  - 0.0
  - 0.0
  - 0.0
  - 0.0
  - 0.0
  - 0.0
  - 0.0
  - 0.0
  - 0.0
  - 0.0
  - 0.0
  - 0.0
  - 0.0
  - 0.0
  - 0.0
twist:
  twist:
    linear:
      x: 0.0
      y: 0.0
      z: 0.0
    angular:
      x: 0.0
      y: 0.0
      z: 0.0
  covariance:
  - 0.0
  - 0.0
  - 0.0
  - 0.0
  - 0.0
  - 0.0
  - 0.0
  - 0.0
  - 0.0
  - 0.0
  - 0.0
  - 0.0
  - 0.0
  - 0.0
  - 0.0
  - 0.0
  - 0.0
  - 0.0
  - 0.0
  - 0.0
  - 0.0
  - 0.0
  - 0.0
  - 0.0
  - 0.0
  - 0.0
  - 0.0
  - 0.0
  - 0.0
  - 0.0
  - 0.0
  - 0.0
  - 0.0
  - 0.0
  - 0.0
  - 0.0
---
header:
  stamp:
    sec: 1761839360
    nanosec: 959454369
  frame_id: /map
child_frame_id: ''
pose:
  pose:
    position:
      x: 0.41835146188608835
      y: 1.8382960228427319
      z: 0.0
    orientation:
      x: 0.0
      y: -0.0
      z: -0.9848382138571418
      w: -0.1734753369406576
  covariance:
  - 0.009904794514803998
  - 0.0019559196396264854
  - 0.0014697407060495515
  - 0.001955919639626486
  - 0.0077217486125676195
  - 0.00029857937329722304
  - 0.0014697407060495515
  - 0.0002985793732972231
  - 0.008926196549009375
  - 0.0
  - 0.0
  - 0.0
  - 0.0
  - 0.0
  - 0.0
  - 0.0
  - 0.0
  - 0.0
  - 0.0
  - 0.0
  - 0.0
  - 0.0
  - 0.0
  - 0.0
  - 0.0
  - 0.0
  - 0.0
  - 0.0
  - 0.0
  - 0.0
  - 0.0
  - 0.0
  - 0.0
  - 0.0
  - 0.0
  - 0.0
twist:
  twist:
    linear:
      x: 0.0
      y: 0.0
      z: 0.0
    angular:
      x: 0.0
      y: 0.0
      z: 0.0
  covariance:
  - 0.0
  - 0.0
  - 0.0
  - 0.0
  - 0.0
  - 0.0
  - 0.0
  - 0.0
  - 0.0
  - 0.0
  - 0.0
  - 0.0
  - 0.0
  - 0.0
  - 0.0
  - 0.0
  - 0.0
  - 0.0
  - 0.0
  - 0.0
  - 0.0
  - 0.0
  - 0.0
  - 0.0
  - 0.0
  - 0.0
  - 0.0
  - 0.0
  - 0.0
  - 0.0
  - 0.0
  - 0.0
  - 0.0
  - 0.0
  - 0.0
  - 0.0
---
header:
  stamp:
    sec: 1761839361
    nanosec: 60554594
  frame_id: /map
child_frame_id: ''
pose:
  pose:
    position:
      x: 0.4140226750244808
      y: 1.8374173901981523
      z: 0.0
    orientation:
      x: 0.0
      y: -0.0
      z: -0.9851251890341121
      w: -0.1718381853096252
  covariance:
  - 0.009866278011842962
  - 0.0019762419211656664
  - 0.0013090179179038087
  - 0.0019762419211656664
  - 0.007717811809359316
  - 0.0004628634121112855
  - 0.0013090179179038087
  - 0.0004628634121112855
  - 0.00897807318739491
  - 0.0
  - 0.0
  - 0.0
  - 0.0
  - 0.0
  - 0.0
  - 0.0
  - 0.0
  - 0.0
  - 0.0
  - 0.0
  - 0.0
  - 0.0
  - 0.0
  - 0.0
  - 0.0
  - 0.0
  - 0.0
  - 0.0
  - 0.0
  - 0.0
  - 0.0
  - 0.0
  - 0.0
  - 0.0
  - 0.0
  - 0.0
twist:
  twist:
    linear:
      x: 0.0
      y: 0.0
      z: 0.0
    angular:
      x: 0.0
      y: 0.0
      z: 0.0
  covariance:
  - 0.0
  - 0.0
  - 0.0
  - 0.0
  - 0.0
  - 0.0
  - 0.0
  - 0.0
  - 0.0
  - 0.0
  - 0.0
  - 0.0
  - 0.0
  - 0.0
  - 0.0
  - 0.0
  - 0.0
  - 0.0
  - 0.0
  - 0.0
  - 0.0
  - 0.0
  - 0.0
  - 0.0
  - 0.0
  - 0.0
  - 0.0
  - 0.0
  - 0.0
  - 0.0
  - 0.0
  - 0.0
  - 0.0
  - 0.0
  - 0.0
  - 0.0
---
header:
  stamp:
    sec: 1761839361
    nanosec: 129716680
  frame_id: /map
child_frame_id: ''
pose:
  pose:
    position:
      x: 0.41329217311518124
      y: 1.8383425006924057
      z: 0.0
    orientation:
      x: 0.0
      y: -0.0
      z: -0.9848268764513117
      w: -0.1735396883112125
  covariance:
  - 0.009835430469157117
  - 0.0020447401108023935
  - 0.0012294970704412613
  - 0.002044740110802393
  - 0.007826805226270576
  - 0.0002414624720910237
  - 0.0012294970704412613
  - 0.00024146247209102373
  - 0.009236910413799818
  - 0.0
  - 0.0
  - 0.0
  - 0.0
  - 0.0
  - 0.0
  - 0.0
  - 0.0
  - 0.0
  - 0.0
  - 0.0
  - 0.0
  - 0.0
  - 0.0
  - 0.0
  - 0.0
  - 0.0
  - 0.0
  - 0.0
  - 0.0
  - 0.0
  - 0.0
  - 0.0
  - 0.0
  - 0.0
  - 0.0
  - 0.0
twist:
  twist:
    linear:
      x: 0.0
      y: 0.0
      z: 0.0
    angular:
      x: 0.0
      y: 0.0
      z: 0.0
  covariance:
  - 0.0
  - 0.0
  - 0.0
  - 0.0
  - 0.0
  - 0.0
  - 0.0
  - 0.0
  - 0.0
  - 0.0
  - 0.0
  - 0.0
  - 0.0
  - 0.0
  - 0.0
  - 0.0
  - 0.0
  - 0.0
  - 0.0
  - 0.0
  - 0.0
  - 0.0
  - 0.0
  - 0.0
  - 0.0
  - 0.0
  - 0.0
  - 0.0
  - 0.0
  - 0.0
  - 0.0
  - 0.0
  - 0.0
  - 0.0
  - 0.0
  - 0.0
---
header:
  stamp:
    sec: 1761839361
    nanosec: 230950796
  frame_id: /map
child_frame_id: ''
pose:
  pose:
    position:
      x: 0.4127674554743643
      y: 1.837108085099216
      z: 0.0
    orientation:
      x: 0.0
      y: -0.0
      z: -0.9848199255499948
      w: -0.1735791296201901
  covariance:
  - 0.009882713102694791
  - 0.0019695707050602024
  - 0.001452240264995977
  - 0.001969570705060202
  - 0.007686144942230624
  - 0.00046690040920989656
  - 0.0014522402649959768
  - 0.00046690040920989656
  - 0.00942265885721205
  - 0.0
  - 0.0
  - 0.0
  - 0.0
  - 0.0
  - 0.0
  - 0.0
  - 0.0
  - 0.0
  - 0.0
  - 0.0
  - 0.0
  - 0.0
  - 0.0
  - 0.0
  - 0.0
  - 0.0
  - 0.0
  - 0.0
  - 0.0
  - 0.0
  - 0.0
  - 0.0
  - 0.0
  - 0.0
  - 0.0
  - 0.0
twist:
  twist:
    linear:
      x: 0.0
      y: 0.0
      z: 0.0
    angular:
      x: 0.0
      y: 0.0
      z: 0.0
  covariance:
  - 0.0
  - 0.0
  - 0.0
  - 0.0
  - 0.0
  - 0.0
  - 0.0
  - 0.0
  - 0.0
  - 0.0
  - 0.0
  - 0.0
  - 0.0
  - 0.0
  - 0.0
  - 0.0
  - 0.0
  - 0.0
  - 0.0
  - 0.0
  - 0.0
  - 0.0
  - 0.0
  - 0.0
  - 0.0
  - 0.0
  - 0.0
  - 0.0
  - 0.0
  - 0.0
  - 0.0
  - 0.0
  - 0.0
  - 0.0
  - 0.0
  - 0.0
---
header:
  stamp:
    sec: 1761839361
    nanosec: 372559498
  frame_id: /map
child_frame_id: ''
pose:
  pose:
    position:
      x: 0.41333545450386483
      y: 1.8383420001264312
      z: 0.0
    orientation:
      x: 0.0
      y: -0.0
      z: -0.9848849747674555
      w: -0.1732096604618474
  covariance:
  - 0.00951510609506587
  - 0.0019720643350085126
  - 0.001227303416610543
  - 0.0019720643350085126
  - 0.007809955680547725
  - 0.00033866667856819984
  - 0.001227303416610543
  - 0.00033866667856819973
  - 0.009072820011434852
  - 0.0
  - 0.0
  - 0.0
  - 0.0
  - 0.0
  - 0.0
  - 0.0
  - 0.0
  - 0.0
  - 0.0
  - 0.0
  - 0.0
  - 0.0
  - 0.0
  - 0.0
  - 0.0
  - 0.0
  - 0.0
  - 0.0
  - 0.0
  - 0.0
  - 0.0
  - 0.0
  - 0.0
  - 0.0
  - 0.0
  - 0.0
twist:
  twist:
    linear:
      x: 0.0
      y: 0.0
      z: 0.0
    angular:
      x: 0.0
      y: 0.0
      z: 0.0
  covariance:
  - 0.0
  - 0.0
  - 0.0
  - 0.0
  - 0.0
  - 0.0
  - 0.0
  - 0.0
  - 0.0
  - 0.0
  - 0.0
  - 0.0
  - 0.0
  - 0.0
  - 0.0
  - 0.0
  - 0.0
  - 0.0
  - 0.0
  - 0.0
  - 0.0
  - 0.0
  - 0.0
  - 0.0
  - 0.0
  - 0.0
  - 0.0
  - 0.0
  - 0.0
  - 0.0
  - 0.0
  - 0.0
  - 0.0
  - 0.0
  - 0.0
  - 0.0
---
header:
  stamp:
    sec: 1761839361
    nanosec: 458255367
  frame_id: /map
child_frame_id: ''
pose:
  pose:
    position:
      x: 0.4132906244854553
      y: 1.8374722325003472
      z: 0.0
    orientation:
      x: 0.0
      y: -0.0
      z: -0.9851684245035559
      w: -0.17159013771537532
  covariance:
  - 0.009378004911658546
  - 0.0018040183857251494
  - 0.0009747368259105079
  - 0.0018040183857251499
  - 0.007687162920601406
  - 0.00026866753332301807
  - 0.0009747368259105078
  - 0.00026866753332301807
  - 0.009032082809300103
  - 0.0
  - 0.0
  - 0.0
  - 0.0
  - 0.0
  - 0.0
  - 0.0
  - 0.0
  - 0.0
  - 0.0
  - 0.0
  - 0.0
  - 0.0
  - 0.0
  - 0.0
  - 0.0
  - 0.0
  - 0.0
  - 0.0
  - 0.0
  - 0.0
  - 0.0
  - 0.0
  - 0.0
  - 0.0
  - 0.0
  - 0.0
twist:
  twist:
    linear:
      x: 0.0
      y: 0.0
      z: 0.0
    angular:
      x: 0.0
      y: 0.0
      z: 0.0
  covariance:
  - 0.0
  - 0.0
  - 0.0
  - 0.0
  - 0.0
  - 0.0
  - 0.0
  - 0.0
  - 0.0
  - 0.0
  - 0.0
  - 0.0
  - 0.0
  - 0.0
  - 0.0
  - 0.0
  - 0.0
  - 0.0
  - 0.0
  - 0.0
  - 0.0
  - 0.0
  - 0.0
  - 0.0
  - 0.0
  - 0.0
  - 0.0
  - 0.0
  - 0.0
  - 0.0
  - 0.0
  - 0.0
  - 0.0
  - 0.0
  - 0.0
  - 0.0
---
header:
  stamp:
    sec: 1761839361
    nanosec: 546035810
  frame_id: /map
child_frame_id: ''
pose:
  pose:
    position:
      x: 0.4150856010256337
      y: 1.8388166408830309
      z: 0.0
    orientation:
      x: 0.0
      y: -0.0
      z: -0.9848557264911534
      w: -0.17337588643632795
  covariance:
  - 0.009412870751400246
  - 0.0017891231705378478
  - 0.0012887396389158383
  - 0.0017891231705378476
  - 0.007436275649556775
  - 0.0005442925218729724
  - 0.0012887396389158383
  - 0.0005442925218729724
  - 0.008932634715455046
  - 0.0
  - 0.0
  - 0.0
  - 0.0
  - 0.0
  - 0.0
  - 0.0
  - 0.0
  - 0.0
  - 0.0
  - 0.0
  - 0.0
  - 0.0
  - 0.0
  - 0.0
  - 0.0
  - 0.0
  - 0.0
  - 0.0
  - 0.0
  - 0.0
  - 0.0
  - 0.0
  - 0.0
  - 0.0
  - 0.0
  - 0.0
twist:
  twist:
    linear:
      x: 0.0
      y: 0.0
      z: 0.0
    angular:
      x: 0.0
      y: 0.0
      z: 0.0
  covariance:
  - 0.0
  - 0.0
  - 0.0
  - 0.0
  - 0.0
  - 0.0
  - 0.0
  - 0.0
  - 0.0
  - 0.0
  - 0.0
  - 0.0
  - 0.0
  - 0.0
  - 0.0
  - 0.0
  - 0.0
  - 0.0
  - 0.0
  - 0.0
  - 0.0
  - 0.0
  - 0.0
  - 0.0
  - 0.0
  - 0.0
  - 0.0
  - 0.0
  - 0.0
  - 0.0
  - 0.0
  - 0.0
  - 0.0
  - 0.0
  - 0.0
  - 0.0
---
header:
  stamp:
    sec: 1761839361
    nanosec: 624906041
  frame_id: /map
child_frame_id: ''
pose:
  pose:
    position:
      x: 0.4137678138081198
      y: 1.8403558651235785
      z: 0.0
    orientation:
      x: 0.0
      y: -0.0
      z: -0.9849103106592941
      w: -0.17306553659528132
  covariance:
  - 0.009835719694138635
  - 0.0015875144342656063
  - 0.0012377042867415965
  - 0.0015875144342656065
  - 0.007414829754271144
  - 0.00033179260834608463
  - 0.0012377042867415965
  - 0.00033179260834608463
  - 0.00938408660921358
  - 0.0
  - 0.0
  - 0.0
  - 0.0
  - 0.0
  - 0.0
  - 0.0
  - 0.0
  - 0.0
  - 0.0
  - 0.0
  - 0.0
  - 0.0
  - 0.0
  - 0.0
  - 0.0
  - 0.0
  - 0.0
  - 0.0
  - 0.0
  - 0.0
  - 0.0
  - 0.0
  - 0.0
  - 0.0
  - 0.0
  - 0.0
twist:
  twist:
    linear:
      x: 0.0
      y: 0.0
      z: 0.0
    angular:
      x: 0.0
      y: 0.0
      z: 0.0
  covariance:
  - 0.0
  - 0.0
  - 0.0
  - 0.0
  - 0.0
  - 0.0
  - 0.0
  - 0.0
  - 0.0
  - 0.0
  - 0.0
  - 0.0
  - 0.0
  - 0.0
  - 0.0
  - 0.0
  - 0.0
  - 0.0
  - 0.0
  - 0.0
  - 0.0
  - 0.0
  - 0.0
  - 0.0
  - 0.0
  - 0.0
  - 0.0
  - 0.0
  - 0.0
  - 0.0
  - 0.0
  - 0.0
  - 0.0
  - 0.0
  - 0.0
  - 0.0
---
header:
  stamp:
    sec: 1761839361
    nanosec: 697921273
  frame_id: /map
child_frame_id: ''
pose:
  pose:
    position:
      x: 0.4129623620674228
      y: 1.8407327294508704
      z: 0.0
    orientation:
      x: 0.0
      y: -0.0
      z: -0.9848585216809006
      w: -0.17336000770798074
  covariance:
  - 0.009436781804111066
  - 0.0014209894933972782
  - 0.0012215641866020035
  - 0.001420989493397278
  - 0.007297441274345538
  - 0.00040073717280327806
  - 0.0012215641866020035
  - 0.00040073717280327806
  - 0.009001109414992959
  - 0.0
  - 0.0
  - 0.0
  - 0.0
  - 0.0
  - 0.0
  - 0.0
  - 0.0
  - 0.0
  - 0.0
  - 0.0
  - 0.0
  - 0.0
  - 0.0
  - 0.0
  - 0.0
  - 0.0
  - 0.0
  - 0.0
  - 0.0
  - 0.0
  - 0.0
  - 0.0
  - 0.0
  - 0.0
  - 0.0
  - 0.0
twist:
  twist:
    linear:
      x: 0.0
      y: 0.0
      z: 0.0
    angular:
      x: 0.0
      y: 0.0
      z: 0.0
  covariance:
  - 0.0
  - 0.0
  - 0.0
  - 0.0
  - 0.0
  - 0.0
  - 0.0
  - 0.0
  - 0.0
  - 0.0
  - 0.0
  - 0.0
  - 0.0
  - 0.0
  - 0.0
  - 0.0
  - 0.0
  - 0.0
  - 0.0
  - 0.0
  - 0.0
  - 0.0
  - 0.0
  - 0.0
  - 0.0
  - 0.0
  - 0.0
  - 0.0
  - 0.0
  - 0.0
  - 0.0
  - 0.0
  - 0.0
  - 0.0
  - 0.0
  - 0.0
---
header:
  stamp:
    sec: 1761839361
    nanosec: 773578240
  frame_id: /map
child_frame_id: ''
pose:
  pose:
    position:
      x: 0.4035424361373135
      y: 1.840113829358609
      z: 0.0
    orientation:
      x: 0.0
      y: -0.0
      z: -0.9868923186047686
      w: -0.16138014586343657
  covariance:
  - 0.009335510508011116
  - 0.0015858951062039477
  - 0.0011970244674284923
  - 0.0015858951062039477
  - 0.007285526380373907
  - 0.00047706793114362435
  - 0.0011970244674284923
  - 0.0004770679311436244
  - 0.00888318867381061
  - 0.0
  - 0.0
  - 0.0
  - 0.0
  - 0.0
  - 0.0
  - 0.0
  - 0.0
  - 0.0
  - 0.0
  - 0.0
  - 0.0
  - 0.0
  - 0.0
  - 0.0
  - 0.0
  - 0.0
  - 0.0
  - 0.0
  - 0.0
  - 0.0
  - 0.0
  - 0.0
  - 0.0
  - 0.0
  - 0.0
  - 0.0
twist:
  twist:
    linear:
      x: 0.0
      y: 0.0
      z: 0.0
    angular:
      x: 0.0
      y: 0.0
      z: 0.0
  covariance:
  - 0.0
  - 0.0
  - 0.0
  - 0.0
  - 0.0
  - 0.0
  - 0.0
  - 0.0
  - 0.0
  - 0.0
  - 0.0
  - 0.0
  - 0.0
  - 0.0
  - 0.0
  - 0.0
  - 0.0
  - 0.0
  - 0.0
  - 0.0
  - 0.0
  - 0.0
  - 0.0
  - 0.0
  - 0.0
  - 0.0
  - 0.0
  - 0.0
  - 0.0
  - 0.0
  - 0.0
  - 0.0
  - 0.0
  - 0.0
  - 0.0
  - 0.0
---
header:
  stamp:
    sec: 1761839361
    nanosec: 858533490
  frame_id: /map
child_frame_id: ''
pose:
  pose:
    position:
      x: 0.40419449961568676
      y: 1.8416816814731172
      z: 0.0
    orientation:
      x: 0.0
      y: -0.0
      z: -0.9850846211361036
      w: -0.17207059365603167
  covariance:
  - 0.009283399254899004
  - 0.002055133834094457
  - 0.0011105370511845297
  - 0.0020551338340944565
  - 0.007746936065581893
  - 0.00022949627749162618
  - 0.0011105370511845297
  - 0.00022949627749162604
  - 0.009481758933832319
  - 0.0
  - 0.0
  - 0.0
  - 0.0
  - 0.0
  - 0.0
  - 0.0
  - 0.0
  - 0.0
  - 0.0
  - 0.0
  - 0.0
  - 0.0
  - 0.0
  - 0.0
  - 0.0
  - 0.0
  - 0.0
  - 0.0
  - 0.0
  - 0.0
  - 0.0
  - 0.0
  - 0.0
  - 0.0
  - 0.0
  - 0.0
twist:
  twist:
    linear:
      x: 0.0
      y: 0.0
      z: 0.0
    angular:
      x: 0.0
      y: 0.0
      z: 0.0
  covariance:
  - 0.0
  - 0.0
  - 0.0
  - 0.0
  - 0.0
  - 0.0
  - 0.0
  - 0.0
  - 0.0
  - 0.0
  - 0.0
  - 0.0
  - 0.0
  - 0.0
  - 0.0
  - 0.0
  - 0.0
  - 0.0
  - 0.0
  - 0.0
  - 0.0
  - 0.0
  - 0.0
  - 0.0
  - 0.0
  - 0.0
  - 0.0
  - 0.0
  - 0.0
  - 0.0
  - 0.0
  - 0.0
  - 0.0
  - 0.0
  - 0.0
  - 0.0
---
header:
  stamp:
    sec: 1761839361
    nanosec: 942568246
  frame_id: /map
child_frame_id: ''
pose:
  pose:
    position:
      x: 0.4064059675560394
      y: 1.8404363817314748
      z: 0.0
    orientation:
      x: 0.0
      y: -0.0
      z: -0.9847372741385428
      w: -0.17404740998415452
  covariance:
  - 0.009306257619459463
  - 0.0019109954127906265
  - 0.0014136365252352472
  - 0.0019109954127906265
  - 0.007748605329757392
  - 0.00021230779572294742
  - 0.0014136365252352472
  - 0.0002123077957229474
  - 0.009231098385769949
  - 0.0
  - 0.0
  - 0.0
  - 0.0
  - 0.0
  - 0.0
  - 0.0
  - 0.0
  - 0.0
  - 0.0
  - 0.0
  - 0.0
  - 0.0
  - 0.0
  - 0.0
  - 0.0
  - 0.0
  - 0.0
  - 0.0
  - 0.0
  - 0.0
  - 0.0
  - 0.0
  - 0.0
  - 0.0
  - 0.0
  - 0.0
twist:
  twist:
    linear:
      x: 0.0
      y: 0.0
      z: 0.0
    angular:
      x: 0.0
      y: 0.0
      z: 0.0
  covariance:
  - 0.0
  - 0.0
  - 0.0
  - 0.0
  - 0.0
  - 0.0
  - 0.0
  - 0.0
  - 0.0
  - 0.0
  - 0.0
  - 0.0
  - 0.0
  - 0.0
  - 0.0
  - 0.0
  - 0.0
  - 0.0
  - 0.0
  - 0.0
  - 0.0
  - 0.0
  - 0.0
  - 0.0
  - 0.0
  - 0.0
  - 0.0
  - 0.0
  - 0.0
  - 0.0
  - 0.0
  - 0.0
  - 0.0
  - 0.0
  - 0.0
  - 0.0
---
header:
  stamp:
    sec: 1761839362
    nanosec: 12065409
  frame_id: /map
child_frame_id: ''
pose:
  pose:
    position:
      x: 0.4102238612460243
      y: 1.8404147051669404
      z: 0.0
    orientation:
      x: 0.0
      y: -0.0
      z: -0.9849075884020987
      w: -0.17308102815722537
  covariance:
  - 0.009527316871943843
  - 0.0018095101196545262
  - 0.0014570571407624816
  - 0.0018095101196545262
  - 0.00783466089196029
  - 0.00020678633733603135
  - 0.0014570571407624816
  - 0.00020678633733603132
  - 0.009544881253551659
  - 0.0
  - 0.0
  - 0.0
  - 0.0
  - 0.0
  - 0.0
  - 0.0
  - 0.0
  - 0.0
  - 0.0
  - 0.0
  - 0.0
  - 0.0
  - 0.0
  - 0.0
  - 0.0
  - 0.0
  - 0.0
  - 0.0
  - 0.0
  - 0.0
  - 0.0
  - 0.0
  - 0.0
  - 0.0
  - 0.0
  - 0.0
twist:
  twist:
    linear:
      x: 0.0
      y: 0.0
      z: 0.0
    angular:
      x: 0.0
      y: 0.0
      z: 0.0
  covariance:
  - 0.0
  - 0.0
  - 0.0
  - 0.0
  - 0.0
  - 0.0
  - 0.0
  - 0.0
  - 0.0
  - 0.0
  - 0.0
  - 0.0
  - 0.0
  - 0.0
  - 0.0
  - 0.0
  - 0.0
  - 0.0
  - 0.0
  - 0.0
  - 0.0
  - 0.0
  - 0.0
  - 0.0
  - 0.0
  - 0.0
  - 0.0
  - 0.0
  - 0.0
  - 0.0
  - 0.0
  - 0.0
  - 0.0
  - 0.0
  - 0.0
  - 0.0
---
header:
  stamp:
    sec: 1761839362
    nanosec: 84087380
  frame_id: /map
child_frame_id: ''
pose:
  pose:
    position:
      x: 0.41232809952851524
      y: 1.8415236663447396
      z: 0.0
    orientation:
      x: 0.0
      y: -0.0
      z: -0.9851161474805225
      w: -0.17189001126631417
  covariance:
  - 0.009732067029986774
  - 0.001840369482574041
  - 0.0013433863598773205
  - 0.0018403694825740407
  - 0.007533819310224048
  - 0.00012340014962948636
  - 0.0013433863598773205
  - 0.00012340014962948634
  - 0.00923189685837005
  - 0.0
  - 0.0
  - 0.0
  - 0.0
  - 0.0
  - 0.0
  - 0.0
  - 0.0
  - 0.0
  - 0.0
  - 0.0
  - 0.0
  - 0.0
  - 0.0
  - 0.0
  - 0.0
  - 0.0
  - 0.0
  - 0.0
  - 0.0
  - 0.0
  - 0.0
  - 0.0
  - 0.0
  - 0.0
  - 0.0
  - 0.0
twist:
  twist:
    linear:
      x: 0.0
      y: 0.0
      z: 0.0
    angular:
      x: 0.0
      y: 0.0
      z: 0.0
  covariance:
  - 0.0
  - 0.0
  - 0.0
  - 0.0
  - 0.0
  - 0.0
  - 0.0
  - 0.0
  - 0.0
  - 0.0
  - 0.0
  - 0.0
  - 0.0
  - 0.0
  - 0.0
  - 0.0
  - 0.0
  - 0.0
  - 0.0
  - 0.0
  - 0.0
  - 0.0
  - 0.0
  - 0.0
  - 0.0
  - 0.0
  - 0.0
  - 0.0
  - 0.0
  - 0.0
  - 0.0
  - 0.0
  - 0.0
  - 0.0
  - 0.0
  - 0.0
---
header:
  stamp:
    sec: 1761839362
    nanosec: 166528323
  frame_id: /map
child_frame_id: ''
pose:
  pose:
    position:
      x: 0.4118685853789312
      y: 1.8405675732019149
      z: 0.0
    orientation:
      x: 0.0
      y: -0.0
      z: -0.985032031619335
      w: -0.1723713917211481
  covariance:
  - 0.009499024402710296
  - 0.0017768203534985806
  - 0.0012675957721568275
  - 0.0017768203534985806
  - 0.007606325269049103
  - 5.499253478860697e-05
  - 0.0012675957721568277
  - 5.4992534788607e-05
  - 0.009239146848381397
  - 0.0
  - 0.0
  - 0.0
  - 0.0
  - 0.0
  - 0.0
  - 0.0
  - 0.0
  - 0.0
  - 0.0
  - 0.0
  - 0.0
  - 0.0
  - 0.0
  - 0.0
  - 0.0
  - 0.0
  - 0.0
  - 0.0
  - 0.0
  - 0.0
  - 0.0
  - 0.0
  - 0.0
  - 0.0
  - 0.0
  - 0.0
twist:
  twist:
    linear:
      x: 0.0
      y: 0.0
      z: 0.0
    angular:
      x: 0.0
      y: 0.0
      z: 0.0
  covariance:
  - 0.0
  - 0.0
  - 0.0
  - 0.0
  - 0.0
  - 0.0
  - 0.0
  - 0.0
  - 0.0
  - 0.0
  - 0.0
  - 0.0
  - 0.0
  - 0.0
  - 0.0
  - 0.0
  - 0.0
  - 0.0
  - 0.0
  - 0.0
  - 0.0
  - 0.0
  - 0.0
  - 0.0
  - 0.0
  - 0.0
  - 0.0
  - 0.0
  - 0.0
  - 0.0
  - 0.0
  - 0.0
  - 0.0
  - 0.0
  - 0.0
  - 0.0
---
header:
  stamp:
    sec: 1761839362
    nanosec: 286109884
  frame_id: /map
child_frame_id: ''
pose:
  pose:
    position:
      x: 0.41466870305636905
      y: 1.8404727859118017
      z: 0.0
    orientation:
      x: 0.0
      y: -0.0
      z: -0.9850495434268215
      w: -0.17227128894453198
  covariance:
  - 0.00976805510288995
  - 0.0019437209105547643
  - 0.0010579657435602716
  - 0.0019437209105547645
  - 0.007745378207959222
  - 0.00023010083174149004
  - 0.0010579657435602716
  - 0.00023010083174149004
  - 0.0093079901697909
  - 0.0
  - 0.0
  - 0.0
  - 0.0
  - 0.0
  - 0.0
  - 0.0
  - 0.0
  - 0.0
  - 0.0
  - 0.0
  - 0.0
  - 0.0
  - 0.0
  - 0.0
  - 0.0
  - 0.0
  - 0.0
  - 0.0
  - 0.0
  - 0.0
  - 0.0
  - 0.0
  - 0.0
  - 0.0
  - 0.0
  - 0.0
twist:
  twist:
    linear:
      x: 0.0
      y: 0.0
      z: 0.0
    angular:
      x: 0.0
      y: 0.0
      z: 0.0
  covariance:
  - 0.0
  - 0.0
  - 0.0
  - 0.0
  - 0.0
  - 0.0
  - 0.0
  - 0.0
  - 0.0
  - 0.0
  - 0.0
  - 0.0
  - 0.0
  - 0.0
  - 0.0
  - 0.0
  - 0.0
  - 0.0
  - 0.0
  - 0.0
  - 0.0
  - 0.0
  - 0.0
  - 0.0
  - 0.0
  - 0.0
  - 0.0
  - 0.0
  - 0.0
  - 0.0
  - 0.0
  - 0.0
  - 0.0
  - 0.0
  - 0.0
  - 0.0
---
header:
  stamp:
    sec: 1761839362
    nanosec: 427250231
  frame_id: /map
child_frame_id: ''
pose:
  pose:
    position:
      x: 0.419011885873686
      y: 1.8412991571913264
      z: 0.0
    orientation:
      x: 0.0
      y: -0.0
      z: -0.9846920493883577
      w: -0.1743030919730227
  covariance:
  - 0.00990507654968875
  - 0.0018824949290120328
  - 0.001431279087202335
  - 0.0018824949290120328
  - 0.007760286414119485
  - 0.00024920194984612076
  - 0.001431279087202335
  - 0.00024920194984612076
  - 0.00895142269705036
  - 0.0
  - 0.0
  - 0.0
  - 0.0
  - 0.0
  - 0.0
  - 0.0
  - 0.0
  - 0.0
  - 0.0
  - 0.0
  - 0.0
  - 0.0
  - 0.0
  - 0.0
  - 0.0
  - 0.0
  - 0.0
  - 0.0
  - 0.0
  - 0.0
  - 0.0
  - 0.0
  - 0.0
  - 0.0
  - 0.0
  - 0.0
twist:
  twist:
    linear:
      x: 0.0
      y: 0.0
      z: 0.0
    angular:
      x: 0.0
      y: 0.0
      z: 0.0
  covariance:
  - 0.0
  - 0.0
  - 0.0
  - 0.0
  - 0.0
  - 0.0
  - 0.0
  - 0.0
  - 0.0
  - 0.0
  - 0.0
  - 0.0
  - 0.0
  - 0.0
  - 0.0
  - 0.0
  - 0.0
  - 0.0
  - 0.0
  - 0.0
  - 0.0
  - 0.0
  - 0.0
  - 0.0
  - 0.0
  - 0.0
  - 0.0
  - 0.0
  - 0.0
  - 0.0
  - 0.0
  - 0.0
  - 0.0
  - 0.0
  - 0.0
  - 0.0
---
header:
  stamp:
    sec: 1761839362
    nanosec: 557617041
  frame_id: /map
child_frame_id: ''
pose:
  pose:
    position:
      x: 0.41915722003357414
      y: 1.8427399996930924
      z: 0.0
    orientation:
      x: 0.0
      y: -0.0
      z: -0.9851214486110654
      w: -0.17185962727306234
  covariance:
  - 0.010002735038231673
  - 0.0023291937323449926
  - 0.0013476825164732455
  - 0.002329193732344993
  - 0.007780143624919783
  - 0.00039849182696742916
  - 0.0013476825164732453
  - 0.00039849182696742916
  - 0.009086270192121612
  - 0.0
  - 0.0
  - 0.0
  - 0.0
  - 0.0
  - 0.0
  - 0.0
  - 0.0
  - 0.0
  - 0.0
  - 0.0
  - 0.0
  - 0.0
  - 0.0
  - 0.0
  - 0.0
  - 0.0
  - 0.0
  - 0.0
  - 0.0
  - 0.0
  - 0.0
  - 0.0
  - 0.0
  - 0.0
  - 0.0
  - 0.0
twist:
  twist:
    linear:
      x: 0.0
      y: 0.0
      z: 0.0
    angular:
      x: 0.0
      y: 0.0
      z: 0.0
  covariance:
  - 0.0
  - 0.0
  - 0.0
  - 0.0
  - 0.0
  - 0.0
  - 0.0
  - 0.0
  - 0.0
  - 0.0
  - 0.0
  - 0.0
  - 0.0
  - 0.0
  - 0.0
  - 0.0
  - 0.0
  - 0.0
  - 0.0
  - 0.0
  - 0.0
  - 0.0
  - 0.0
  - 0.0
  - 0.0
  - 0.0
  - 0.0
  - 0.0
  - 0.0
  - 0.0
  - 0.0
  - 0.0
  - 0.0
  - 0.0
  - 0.0
  - 0.0
---
header:
  stamp:
    sec: 1761839362
    nanosec: 700707017
  frame_id: /map
child_frame_id: ''
pose:
  pose:
    position:
      x: 0.4189277742449917
      y: 1.8419169144177094
      z: 0.0
    orientation:
      x: 0.0
      y: -0.0
      z: -0.9848113935734989
      w: -0.17362752975211912
  covariance:
  - 0.009810178066273436
  - 0.0022358771713984556
  - 0.0013271918172782571
  - 0.0022358771713984556
  - 0.007918186929542456
  - 0.0004519919827548926
  - 0.0013271918172782571
  - 0.0004519919827548925
  - 0.008852470898153395
  - 0.0
  - 0.0
  - 0.0
  - 0.0
  - 0.0
  - 0.0
  - 0.0
  - 0.0
  - 0.0
  - 0.0
  - 0.0
  - 0.0
  - 0.0
  - 0.0
  - 0.0
  - 0.0
  - 0.0
  - 0.0
  - 0.0
  - 0.0
  - 0.0
  - 0.0
  - 0.0
  - 0.0
  - 0.0
  - 0.0
  - 0.0
twist:
  twist:
    linear:
      x: 0.0
      y: 0.0
      z: 0.0
    angular:
      x: 0.0
      y: 0.0
      z: 0.0
  covariance:
  - 0.0
  - 0.0
  - 0.0
  - 0.0
  - 0.0
  - 0.0
  - 0.0
  - 0.0
  - 0.0
  - 0.0
  - 0.0
  - 0.0
  - 0.0
  - 0.0
  - 0.0
  - 0.0
  - 0.0
  - 0.0
  - 0.0
  - 0.0
  - 0.0
  - 0.0
  - 0.0
  - 0.0
  - 0.0
  - 0.0
  - 0.0
  - 0.0
  - 0.0
  - 0.0
  - 0.0
  - 0.0
  - 0.0
  - 0.0
  - 0.0
  - 0.0
---
header:
  stamp:
    sec: 1761839362
    nanosec: 777394754
  frame_id: /map
child_frame_id: ''
pose:
  pose:
    position:
      x: 0.4185076244599576
      y: 1.842780769917845
      z: 0.0
    orientation:
      x: 0.0
      y: -0.0
      z: -0.9848874573260229
      w: -0.1731955438280139
  covariance:
  - 0.009958267808814848
  - 0.0018454413583507997
  - 0.0012719602728183887
  - 0.0018454413583507997
  - 0.007619586966899997
  - 0.0003480201227450663
  - 0.0012719602728183887
  - 0.0003480201227450663
  - 0.009204523296399484
  - 0.0
  - 0.0
  - 0.0
  - 0.0
  - 0.0
  - 0.0
  - 0.0
  - 0.0
  - 0.0
  - 0.0
  - 0.0
  - 0.0
  - 0.0
  - 0.0
  - 0.0
  - 0.0
  - 0.0
  - 0.0
  - 0.0
  - 0.0
  - 0.0
  - 0.0
  - 0.0
  - 0.0
  - 0.0
  - 0.0
  - 0.0
twist:
  twist:
    linear:
      x: 0.0
      y: 0.0
      z: 0.0
    angular:
      x: 0.0
      y: 0.0
      z: 0.0
  covariance:
  - 0.0
  - 0.0
  - 0.0
  - 0.0
  - 0.0
  - 0.0
  - 0.0
  - 0.0
  - 0.0
  - 0.0
  - 0.0
  - 0.0
  - 0.0
  - 0.0
  - 0.0
  - 0.0
  - 0.0
  - 0.0
  - 0.0
  - 0.0
  - 0.0
  - 0.0
  - 0.0
  - 0.0
  - 0.0
  - 0.0
  - 0.0
  - 0.0
  - 0.0
  - 0.0
  - 0.0
  - 0.0
  - 0.0
  - 0.0
  - 0.0
  - 0.0
---
header:
  stamp:
    sec: 1761839362
    nanosec: 860422777
  frame_id: /map
child_frame_id: ''
pose:
  pose:
    position:
      x: 0.4188040669542745
      y: 1.8428963951276054
      z: 0.0
    orientation:
      x: 0.0
      y: -0.0
      z: -0.9850793129475024
      w: -0.1721009796685558
  covariance:
  - 0.010246750114682245
  - 0.0018197409924503175
  - 0.001298440627015763
  - 0.0018197409924503173
  - 0.007544696007039692
  - 0.00021049859189954662
  - 0.001298440627015763
  - 0.00021049859189954662
  - 0.009102655501038802
  - 0.0
  - 0.0
  - 0.0
  - 0.0
  - 0.0
  - 0.0
  - 0.0
  - 0.0
  - 0.0
  - 0.0
  - 0.0
  - 0.0
  - 0.0
  - 0.0
  - 0.0
  - 0.0
  - 0.0
  - 0.0
  - 0.0
  - 0.0
  - 0.0
  - 0.0
  - 0.0
  - 0.0
  - 0.0
  - 0.0
  - 0.0
twist:
  twist:
    linear:
      x: 0.0
      y: 0.0
      z: 0.0
    angular:
      x: 0.0
      y: 0.0
      z: 0.0
  covariance:
  - 0.0
  - 0.0
  - 0.0
  - 0.0
  - 0.0
  - 0.0
  - 0.0
  - 0.0
  - 0.0
  - 0.0
  - 0.0
  - 0.0
  - 0.0
  - 0.0
  - 0.0
  - 0.0
  - 0.0
  - 0.0
  - 0.0
  - 0.0
  - 0.0
  - 0.0
  - 0.0
  - 0.0
  - 0.0
  - 0.0
  - 0.0
  - 0.0
  - 0.0
  - 0.0
  - 0.0
  - 0.0
  - 0.0
  - 0.0
  - 0.0
  - 0.0
---
header:
  stamp:
    sec: 1761839363
    nanosec: 28499815
  frame_id: /map
child_frame_id: ''
pose:
  pose:
    position:
      x: 0.4198604816704005
      y: 1.8423736075411283
      z: 0.0
    orientation:
      x: 0.0
      y: -0.0
      z: -0.9847210616956641
      w: -0.17413911293263265
  covariance:
  - 0.010401377509175398
  - 0.0018860297414816573
  - 0.0014591735586600705
  - 0.0018860297414816575
  - 0.007897364261597381
  - 0.00037840149822155684
  - 0.0014591735586600703
  - 0.0003784014982215568
  - 0.009315201665401101
  - 0.0
  - 0.0
  - 0.0
  - 0.0
  - 0.0
  - 0.0
  - 0.0
  - 0.0
  - 0.0
  - 0.0
  - 0.0
  - 0.0
  - 0.0
  - 0.0
  - 0.0
  - 0.0
  - 0.0
  - 0.0
  - 0.0
  - 0.0
  - 0.0
  - 0.0
  - 0.0
  - 0.0
  - 0.0
  - 0.0
  - 0.0
twist:
  twist:
    linear:
      x: 0.0
      y: 0.0
      z: 0.0
    angular:
      x: 0.0
      y: 0.0
      z: 0.0
  covariance:
  - 0.0
  - 0.0
  - 0.0
  - 0.0
  - 0.0
  - 0.0
  - 0.0
  - 0.0
  - 0.0
  - 0.0
  - 0.0
  - 0.0
  - 0.0
  - 0.0
  - 0.0
  - 0.0
  - 0.0
  - 0.0
  - 0.0
  - 0.0
  - 0.0
  - 0.0
  - 0.0
  - 0.0
  - 0.0
  - 0.0
  - 0.0
  - 0.0
  - 0.0
  - 0.0
  - 0.0
  - 0.0
  - 0.0
  - 0.0
  - 0.0
  - 0.0
---
header:
  stamp:
    sec: 1761839363
    nanosec: 134635451
  frame_id: /map
child_frame_id: ''
pose:
  pose:
    position:
      x: 0.4224309079409208
      y: 1.842774407307597
      z: 0.0
    orientation:
      x: 0.0
      y: -0.0
      z: -0.9844976325054275
      w: -0.17539786655261266
  covariance:
  - 0.010142583971494337
  - 0.001657357913209842
  - 0.0014809248382993256
  - 0.0016573579132098419
  - 0.007858342755160749
  - 0.0003259070747332961
  - 0.0014809248382993256
  - 0.00032590707473329617
  - 0.008853412683563728
  - 0.0
  - 0.0
  - 0.0
  - 0.0
  - 0.0
  - 0.0
  - 0.0
  - 0.0
  - 0.0
  - 0.0
  - 0.0
  - 0.0
  - 0.0
  - 0.0
  - 0.0
  - 0.0
  - 0.0
  - 0.0
  - 0.0
  - 0.0
  - 0.0
  - 0.0
  - 0.0
  - 0.0
  - 0.0
  - 0.0
  - 0.0
twist:
  twist:
    linear:
      x: 0.0
      y: 0.0
      z: 0.0
    angular:
      x: 0.0
      y: 0.0
      z: 0.0
  covariance:
  - 0.0
  - 0.0
  - 0.0
  - 0.0
  - 0.0
  - 0.0
  - 0.0
  - 0.0
  - 0.0
  - 0.0
  - 0.0
  - 0.0
  - 0.0
  - 0.0
  - 0.0
  - 0.0
  - 0.0
  - 0.0
  - 0.0
  - 0.0
  - 0.0
  - 0.0
  - 0.0
  - 0.0
  - 0.0
  - 0.0
  - 0.0
  - 0.0
  - 0.0
  - 0.0
  - 0.0
  - 0.0
  - 0.0
  - 0.0
  - 0.0
  - 0.0
---
header:
  stamp:
    sec: 1761839363
    nanosec: 283085383
  frame_id: /map
child_frame_id: ''
pose:
  pose:
    position:
      x: 0.4205080212215016
      y: 1.843627785240796
      z: 0.0
    orientation:
      x: 0.0
      y: -0.0
      z: -0.9848666350499317
      w: -0.17331390932474164
  covariance:
  - 0.01019393241642834
  - 0.0019205499096833104
  - 0.0014973987825804768
  - 0.0019205499096833101
  - 0.007693541181490587
  - 0.0002852500061426076
  - 0.0014973987825804768
  - 0.0002852500061426076
  - 0.009218985895401465
  - 0.0
  - 0.0
  - 0.0
  - 0.0
  - 0.0
  - 0.0
  - 0.0
  - 0.0
  - 0.0
  - 0.0
  - 0.0
  - 0.0
  - 0.0
  - 0.0
  - 0.0
  - 0.0
  - 0.0
  - 0.0
  - 0.0
  - 0.0
  - 0.0
  - 0.0
  - 0.0
  - 0.0
  - 0.0
  - 0.0
  - 0.0
twist:
  twist:
    linear:
      x: 0.0
      y: 0.0
      z: 0.0
    angular:
      x: 0.0
      y: 0.0
      z: 0.0
  covariance:
  - 0.0
  - 0.0
  - 0.0
  - 0.0
  - 0.0
  - 0.0
  - 0.0
  - 0.0
  - 0.0
  - 0.0
  - 0.0
  - 0.0
  - 0.0
  - 0.0
  - 0.0
  - 0.0
  - 0.0
  - 0.0
  - 0.0
  - 0.0
  - 0.0
  - 0.0
  - 0.0
  - 0.0
  - 0.0
  - 0.0
  - 0.0
  - 0.0
  - 0.0
  - 0.0
  - 0.0
  - 0.0
  - 0.0
  - 0.0
  - 0.0
  - 0.0
---
header:
  stamp:
    sec: 1761839363
    nanosec: 410046610
  frame_id: /map
child_frame_id: ''
pose:
  pose:
    position:
      x: 0.42180516535012774
      y: 1.842877987920719
      z: 0.0
    orientation:
      x: 0.0
      y: -0.0
      z: -0.9848037633319543
      w: -0.1736708027482461
  covariance:
  - 0.009891255119318175
  - 0.0018654511619605016
  - 0.0015397079094134343
  - 0.0018654511619605018
  - 0.007590187551542036
  - 0.00040574063999239873
  - 0.0015397079094134343
  - 0.00040574063999239873
  - 0.00905087598165553
  - 0.0
  - 0.0
  - 0.0
  - 0.0
  - 0.0
  - 0.0
  - 0.0
  - 0.0
  - 0.0
  - 0.0
  - 0.0
  - 0.0
  - 0.0
  - 0.0
  - 0.0
  - 0.0
  - 0.0
  - 0.0
  - 0.0
  - 0.0
  - 0.0
  - 0.0
  - 0.0
  - 0.0
  - 0.0
  - 0.0
  - 0.0
twist:
  twist:
    linear:
      x: 0.0
      y: 0.0
      z: 0.0
    angular:
      x: 0.0
      y: 0.0
      z: 0.0
  covariance:
  - 0.0
  - 0.0
  - 0.0
  - 0.0
  - 0.0
  - 0.0
  - 0.0
  - 0.0
  - 0.0
  - 0.0
  - 0.0
  - 0.0
  - 0.0
  - 0.0
  - 0.0
  - 0.0
  - 0.0
  - 0.0
  - 0.0
  - 0.0
  - 0.0
  - 0.0
  - 0.0
  - 0.0
  - 0.0
  - 0.0
  - 0.0
  - 0.0
  - 0.0
  - 0.0
  - 0.0
  - 0.0
  - 0.0
  - 0.0
  - 0.0
  - 0.0
---
header:
  stamp:
    sec: 1761839363
    nanosec: 545830529
  frame_id: /map
child_frame_id: ''
pose:
  pose:
    position:
      x: 0.4192789504189267
      y: 1.8420545591191964
      z: 0.0
    orientation:
      x: 0.0
      y: -0.0
      z: -0.9849095839458267
      w: -0.1730696722469265
  covariance:
  - 0.01001372454632791
  - 0.0015242210358797313
  - 0.0011896235455790142
  - 0.0015242210358797311
  - 0.007492910572638046
  - 0.0004491074326884224
  - 0.001189623545579014
  - 0.00044910743268842244
  - 0.009034603195686615
  - 0.0
  - 0.0
  - 0.0
  - 0.0
  - 0.0
  - 0.0
  - 0.0
  - 0.0
  - 0.0
  - 0.0
  - 0.0
  - 0.0
  - 0.0
  - 0.0
  - 0.0
  - 0.0
  - 0.0
  - 0.0
  - 0.0
  - 0.0
  - 0.0
  - 0.0
  - 0.0
  - 0.0
  - 0.0
  - 0.0
  - 0.0
twist:
  twist:
    linear:
      x: 0.0
      y: 0.0
      z: 0.0
    angular:
      x: 0.0
      y: 0.0
      z: 0.0
  covariance:
  - 0.0
  - 0.0
  - 0.0
  - 0.0
  - 0.0
  - 0.0
  - 0.0
  - 0.0
  - 0.0
  - 0.0
  - 0.0
  - 0.0
  - 0.0
  - 0.0
  - 0.0
  - 0.0
  - 0.0
  - 0.0
  - 0.0
  - 0.0
  - 0.0
  - 0.0
  - 0.0
  - 0.0
  - 0.0
  - 0.0
  - 0.0
  - 0.0
  - 0.0
  - 0.0
  - 0.0
  - 0.0
  - 0.0
  - 0.0
  - 0.0
  - 0.0
---
header:
  stamp:
    sec: 1761839363
    nanosec: 680682466
  frame_id: /map
child_frame_id: ''
pose:
  pose:
    position:
      x: 0.41626130992688726
      y: 1.8404597641235079
      z: 0.0
    orientation:
      x: 0.0
      y: -0.0
      z: -0.9851720132019515
      w: -0.17156953227077945
  covariance:
  - 0.010113333726766156
  - 0.0015484481523138204
  - 0.001357501325742389
  - 0.0015484481523138206
  - 0.007446373741051389
  - 0.0002319172854959794
  - 0.001357501325742389
  - 0.00023191728549597934
  - 0.009056713616142758
  - 0.0
  - 0.0
  - 0.0
  - 0.0
  - 0.0
  - 0.0
  - 0.0
  - 0.0
  - 0.0
  - 0.0
  - 0.0
  - 0.0
  - 0.0
  - 0.0
  - 0.0
  - 0.0
  - 0.0
  - 0.0
  - 0.0
  - 0.0
  - 0.0
  - 0.0
  - 0.0
  - 0.0
  - 0.0
  - 0.0
  - 0.0
twist:
  twist:
    linear:
      x: 0.0
      y: 0.0
      z: 0.0
    angular:
      x: 0.0
      y: 0.0
      z: 0.0
  covariance:
  - 0.0
  - 0.0
  - 0.0
  - 0.0
  - 0.0
  - 0.0
  - 0.0
  - 0.0
  - 0.0
  - 0.0
  - 0.0
  - 0.0
  - 0.0
  - 0.0
  - 0.0
  - 0.0
  - 0.0
  - 0.0
  - 0.0
  - 0.0
  - 0.0
  - 0.0
  - 0.0
  - 0.0
  - 0.0
  - 0.0
  - 0.0
  - 0.0
  - 0.0
  - 0.0
  - 0.0
  - 0.0
  - 0.0
  - 0.0
  - 0.0
  - 0.0
---
header:
  stamp:
    sec: 1761839363
    nanosec: 814901594
  frame_id: /map
child_frame_id: ''
pose:
  pose:
    position:
      x: 0.41568979427146785
      y: 1.8385142607308573
      z: 0.0
    orientation:
      x: 0.0
      y: -0.0
      z: -0.9850363302929916
      w: -0.17234682475437776
  covariance:
  - 0.00987578376815799
  - 0.0016124677762085953
  - 0.0014845320162489594
  - 0.0016124677762085953
  - 0.007223794047665498
  - 0.0002887455544432097
  - 0.0014845320162489594
  - 0.00028874555444320985
  - 0.009091862411472886
  - 0.0
  - 0.0
  - 0.0
  - 0.0
  - 0.0
  - 0.0
  - 0.0
  - 0.0
  - 0.0
  - 0.0
  - 0.0
  - 0.0
  - 0.0
  - 0.0
  - 0.0
  - 0.0
  - 0.0
  - 0.0
  - 0.0
  - 0.0
  - 0.0
  - 0.0
  - 0.0
  - 0.0
  - 0.0
  - 0.0
  - 0.0
twist:
  twist:
    linear:
      x: 0.0
      y: 0.0
      z: 0.0
    angular:
      x: 0.0
      y: 0.0
      z: 0.0
  covariance:
  - 0.0
  - 0.0
  - 0.0
  - 0.0
  - 0.0
  - 0.0
  - 0.0
  - 0.0
  - 0.0
  - 0.0
  - 0.0
  - 0.0
  - 0.0
  - 0.0
  - 0.0
  - 0.0
  - 0.0
  - 0.0
  - 0.0
  - 0.0
  - 0.0
  - 0.0
  - 0.0
  - 0.0
  - 0.0
  - 0.0
  - 0.0
  - 0.0
  - 0.0
  - 0.0
  - 0.0
  - 0.0
  - 0.0
  - 0.0
  - 0.0
  - 0.0
---
header:
  stamp:
    sec: 1761839363
    nanosec: 921546517
  frame_id: /map
child_frame_id: ''
pose:
  pose:
    position:
      x: 0.41410262074985227
      y: 1.8389138364528417
      z: 0.0
    orientation:
      x: 0.0
      y: -0.0
      z: -0.9849158171320701
      w: -0.1730341965134831
  covariance:
  - 0.009972694835843428
  - 0.001559726790644647
  - 0.001239890209690426
  - 0.001559726790644647
  - 0.007196436591828228
  - 0.00033549125399306794
  - 0.0012398902096904258
  - 0.0003354912539930679
  - 0.009190108009369946
  - 0.0
  - 0.0
  - 0.0
  - 0.0
  - 0.0
  - 0.0
  - 0.0
  - 0.0
  - 0.0
  - 0.0
  - 0.0
  - 0.0
  - 0.0
  - 0.0
  - 0.0
  - 0.0
  - 0.0
  - 0.0
  - 0.0
  - 0.0
  - 0.0
  - 0.0
  - 0.0
  - 0.0
  - 0.0
  - 0.0
  - 0.0
twist:
  twist:
    linear:
      x: 0.0
      y: 0.0
      z: 0.0
    angular:
      x: 0.0
      y: 0.0
      z: 0.0
  covariance:
  - 0.0
  - 0.0
  - 0.0
  - 0.0
  - 0.0
  - 0.0
  - 0.0
  - 0.0
  - 0.0
  - 0.0
  - 0.0
  - 0.0
  - 0.0
  - 0.0
  - 0.0
  - 0.0
  - 0.0
  - 0.0
  - 0.0
  - 0.0
  - 0.0
  - 0.0
  - 0.0
  - 0.0
  - 0.0
  - 0.0
  - 0.0
  - 0.0
  - 0.0
  - 0.0
  - 0.0
  - 0.0
  - 0.0
  - 0.0
  - 0.0
  - 0.0
---
header:
  stamp:
    sec: 1761839363
    nanosec: 993861455
  frame_id: /map
child_frame_id: ''
pose:
  pose:
    position:
      x: 0.4137715968464126
      y: 1.8399286968802222
      z: 0.0
    orientation:
      x: 0.0
      y: -0.0
      z: -0.9847926159972914
      w: -0.1737340020756196
  covariance:
  - 0.009680465606246752
  - 0.0016055352381456126
  - 0.0012775135300799496
  - 0.0016055352381456126
  - 0.007324299979899478
  - 0.0002831635581434409
  - 0.0012775135300799499
  - 0.0002831635581434409
  - 0.009221713501495532
  - 0.0
  - 0.0
  - 0.0
  - 0.0
  - 0.0
  - 0.0
  - 0.0
  - 0.0
  - 0.0
  - 0.0
  - 0.0
  - 0.0
  - 0.0
  - 0.0
  - 0.0
  - 0.0
  - 0.0
  - 0.0
  - 0.0
  - 0.0
  - 0.0
  - 0.0
  - 0.0
  - 0.0
  - 0.0
  - 0.0
  - 0.0
twist:
  twist:
    linear:
      x: 0.0
      y: 0.0
      z: 0.0
    angular:
      x: 0.0
      y: 0.0
      z: 0.0
  covariance:
  - 0.0
  - 0.0
  - 0.0
  - 0.0
  - 0.0
  - 0.0
  - 0.0
  - 0.0
  - 0.0
  - 0.0
  - 0.0
  - 0.0
  - 0.0
  - 0.0
  - 0.0
  - 0.0
  - 0.0
  - 0.0
  - 0.0
  - 0.0
  - 0.0
  - 0.0
  - 0.0
  - 0.0
  - 0.0
  - 0.0
  - 0.0
  - 0.0
  - 0.0
  - 0.0
  - 0.0
  - 0.0
  - 0.0
  - 0.0
  - 0.0
  - 0.0
---
header:
  stamp:
    sec: 1761839364
    nanosec: 72855663
  frame_id: /map
child_frame_id: ''
pose:
  pose:
    position:
      x: 0.4150905392676433
      y: 1.8414840727407729
      z: 0.0
    orientation:
      x: 0.0
      y: -0.0
      z: -0.9848212226112404
      w: -0.17357177044237854
  covariance:
  - 0.009490924462589954
  - 0.001285183216920249
  - 0.0012324917944676616
  - 0.001285183216920249
  - 0.007277056228714761
  - 0.0003981017071400119
  - 0.0012324917944676616
  - 0.000398101707140012
  - 0.009225959112873954
  - 0.0
  - 0.0
  - 0.0
  - 0.0
  - 0.0
  - 0.0
  - 0.0
  - 0.0
  - 0.0
  - 0.0
  - 0.0
  - 0.0
  - 0.0
  - 0.0
  - 0.0
  - 0.0
  - 0.0
  - 0.0
  - 0.0
  - 0.0
  - 0.0
  - 0.0
  - 0.0
  - 0.0
  - 0.0
  - 0.0
  - 0.0
twist:
  twist:
    linear:
      x: 0.0
      y: 0.0
      z: 0.0
    angular:
      x: 0.0
      y: 0.0
      z: 0.0
  covariance:
  - 0.0
  - 0.0
  - 0.0
  - 0.0
  - 0.0
